{"type": "FeatureCollection", "features": [{"type":"Feature","geometry":{"type":"Point","coordinates":[-90.770833,33.601667]},"properties":{"cartodb_id":12,"name":"David \"Honeyboy\" Edwards","city":"Shaw, Mississippi","created_at":"2015-01-28T17:19:37Z","updated_at":"2015-01-28T17:19:58Z"}},{"type":"Feature","geometry":{"type":"Point","coordinates":[-90.184722,32.298889]},"properties":{"cartodb_id":23,"name":"Papa Charlie McCoy","city":"Jackson, Mississippi","created_at":"2015-01-28T17:32:04Z","updated_at":"2015-01-28T17:32:30Z"}},{"type":"Feature","geometry":{"type":"Point","coordinates":[-90.085556,33.655]},"properties":{"cartodb_id":1,"name":"Mississippi John Hurt","city":"Avalon, Mississippi","created_at":"2015-01-28T17:06:52Z","updated_at":"2015-01-28T17:07:36Z"}},{"type":"Feature","geometry":{"type":"Point","coordinates":[-90.471592,31.244472]},"properties":{"cartodb_id":13,"name":"King Solomon Hill","city":"McComb, Mississippi","created_at":"2015-01-28T17:20:04Z","updated_at":"2015-01-28T17:20:32Z"}},{"type":"Feature","geometry":{"type":"Point","coordinates":[-90.368056,32.643889]},"properties":{"cartodb_id":24,"name":"Jack Owens","city":"Bentonia, Mississippi","created_at":"2015-01-28T17:32:31Z","updated_at":"2015-01-28T17:33:51Z"}},{"type":"Feature","geometry":{"type":"Point","coordinates":[-90.159138,32.232549]},"properties":{"cartodb_id":2,"name":"Elmore James","city":"Richland, Mississippi","created_at":"2015-01-28T17:07:38Z","updated_at":"2015-01-28T17:09:14Z"}},{"type":"Feature","geometry":{"type":"Point","coordinates":[-89.375,34.861111]},"properties":{"cartodb_id":14,"name":"Junior Kimbrough","city":"Hudsonville, Mississippi","created_at":"2015-01-28T17:21:25Z","updated_at":"2015-01-28T17:21:50Z"}},{"type":"Feature","geometry":{"type":"Point","coordinates":[-90.396944,31.699167]},"properties":{"cartodb_id":25,"name":"Houston Stackhouse","city":"Wesson, Mississippi","created_at":"2015-01-28T17:33:52Z","updated_at":"2015-01-28T17:34:53Z"}},{"type":"Feature","geometry":{"type":"Point","coordinates":[-90.6,34.23]},"properties":{"cartodb_id":3,"name":"John Lee Hooker","city":"Coahoma County, Mississippi","created_at":"2015-01-28T17:09:15Z","updated_at":"2015-01-28T17:10:10Z"}},{"type":"Feature","geometry":{"type":"Point","coordinates":[-90.622222,32.103333]},"properties":{"cartodb_id":15,"name":"Sonny Boy Nelson","city":"Utica, Mississippi","created_at":"2015-01-28T17:21:51Z","updated_at":"2015-01-28T17:22:34Z"}},{"type":"Feature","geometry":{"type":"Point","coordinates":[-90.180556,33.911944]},"properties":{"cartodb_id":4,"name":"Mose Allison","city":"Tippo, Mississippi","created_at":"2015-01-28T17:10:11Z","updated_at":"2015-01-28T17:13:18Z"}},{"type":"Feature","geometry":{"type":"Point","coordinates":[-90.897222,33.405]},"properties":{"cartodb_id":26,"name":"James Thomas","city":"Leland, Mississippi","created_at":"2015-01-28T17:35:22Z","updated_at":"2015-01-28T17:35:47Z"}},{"type":"Feature","geometry":{"type":"Point","coordinates":[-90.214444,34.904167]},"properties":{"cartodb_id":5,"name":"Tommy Bankhead","city":"Lake Cormorant, Mississippi","created_at":"2015-01-28T17:13:25Z","updated_at":"2015-01-28T17:13:57Z"}},{"type":"Feature","geometry":{"type":"Point","coordinates":[-90.391389,31.865]},"properties":{"cartodb_id":27,"name":"Johnny Temple","city":"Hazlehurst, Mississippi","created_at":"2015-01-28T17:35:57Z","updated_at":"2015-01-28T17:36:20Z"}},{"type":"Feature","geometry":{"type":"Point","coordinates":[-90.604167,32.330833]},"properties":{"cartodb_id":16,"name":"Charley Patton","city":"Edwards, Mississippi","created_at":"2015-01-28T17:22:37Z","updated_at":"2015-01-28T17:23:07Z"}},{"type":"Feature","geometry":{"type":"Point","coordinates":[-90.504722,33.449167]},"properties":{"cartodb_id":6,"name":"Charley Booker","city":"Moorhead, Mississippi","created_at":"2015-01-28T17:13:58Z","updated_at":"2015-01-28T17:16:36Z"}},{"type":"Feature","geometry":{"type":"Point","coordinates":[-90.485,33.181667]},"properties":{"cartodb_id":17,"name":"Pinetop Perkins","city":"Belzoni, Mississippi","created_at":"2015-01-28T17:23:17Z","updated_at":"2015-01-28T17:23:46Z"}},{"type":"Feature","geometry":{"type":"Point","coordinates":[-90.27,32.194167]},"properties":{"cartodb_id":7,"name":"Ishmon Bracey","city":"Byram, Mississippi","created_at":"2015-01-28T17:16:38Z","updated_at":"2015-01-28T17:17:33Z"}},{"type":"Feature","geometry":{"type":"Point","coordinates":[-90.380556,34.688889]},"properties":{"cartodb_id":18,"name":"Doctor Ross","city":"Tunica, Mississippi","created_at":"2015-01-28T17:23:48Z","updated_at":"2015-01-28T17:24:24Z"}},{"type":"Feature","geometry":{"type":"Point","coordinates":[-89.648333,34.540278]},"properties":{"cartodb_id":8,"name":"R. L. Burnside","city":"Harmontown, Mississippi","created_at":"2015-01-28T17:17:34Z","updated_at":"2015-01-28T17:18:04Z"}},{"type":"Feature","geometry":{"type":"Point","coordinates":[-90.46,32.351667]},"properties":{"cartodb_id":9,"name":"Bo Carter","city":"Bolton, Mississippi","created_at":"2015-01-28T17:18:06Z","updated_at":"2015-01-28T17:18:36Z"}},{"type":"Feature","geometry":{"type":"Point","coordinates":[-90.99,32.74]},"properties":{"cartodb_id":19,"name":"Muddy Waters","city":"Issaquena County, Mississippi","created_at":"2015-01-28T17:24:34Z","updated_at":"2015-01-28T17:27:07Z"}},{"type":"Feature","geometry":{"type":"Point","coordinates":[-90.380556,34.688889]},"properties":{"cartodb_id":10,"name":"James Cotton","city":"Tunica, Mississippi","created_at":"2015-01-28T17:18:37Z","updated_at":"2015-01-28T17:19:04Z"}},{"type":"Feature","geometry":{"type":"Point","coordinates":[-89.475278,32.363611]},"properties":{"cartodb_id":11,"name":"Arthur Crudup","city":"Forest, Mississippi","created_at":"2015-01-28T17:19:05Z","updated_at":"2015-01-28T17:19:31Z"}},{"type":"Feature","geometry":{"type":"Point","coordinates":[-89.188889,34.618056]},"properties":{"cartodb_id":20,"name":"Elder Roma Wilson","city":"Hickory Flat, Mississippi","created_at":"2015-01-28T17:27:10Z","updated_at":"2015-01-28T17:29:26Z"}},{"type":"Feature","geometry":{"type":"Point","coordinates":[-88.549722,33.824444]},"properties":{"cartodb_id":21,"name":"Bukka White","city":"Near Aberdeen, Mississippi","created_at":"2015-01-28T17:29:27Z","updated_at":"2015-01-28T17:30:02Z"}},{"type":"Feature","geometry":{"type":"Point","coordinates":[-89.856389,33.076389]},"properties":{"cartodb_id":22,"name":"Tommy McClennan","city":"Durant, Mississippi","created_at":"2015-01-28T17:31:38Z","updated_at":"2015-01-28T17:32:02Z"}}]}